[
  {
    "name": "Château de Poucques",
    "period": "xviiie siècle",
    "country": "Belgique",
    "locality": "Aalter",
    "picture": "Chateau_de_Poucques.webp",
    "author": "Marc Ryckaert (MJJR)",
    "authorLink": "https://commons.wikimedia.org/w/index.php?curid=14883275",
    "website": "https://www.poeke.net/",
    "coordinates": [51.04, 3.45]
  },
  {
    "name": "Château de Bellver",
    "period": "xive siècle",
    "country": "Espagne",
    "locality": "Palma de Majorque",
    "picture": "Chateau_de_Bellver.webp",
    "author": "Taxiarchos228",
    "authorLink": "https://commons.wikimedia.org/w/index.php?curid=34369171",
    "website": "https://castelldebellver.palma.es/",
    "coordinates": [39.563889, 2.619444]
  },
  {
    "name": "Château de Bodiam",
    "period": "1385",
    "country": "Royaume-Uni",
    "locality": "Robertsbridge",
    "picture": "Chateau_de_Bodiam.webp",
    "author": "WyrdLight.com",
    "authorLink": "https://commons.wikimedia.org/w/index.php?curid=7910287",
    "website": "www.nationaltrust.org.uk/bodiam-castle",
    "coordinates": [51.0025, 0.543611]
  },
  {
    "name": "Château de Matsumoto",
    "period": "xvie siècle",
    "country": "Japon",
    "locality": "Matsumoto",
    "picture": "Chateau_de_Matsumoto.webp",
    "author": "663highland",
    "authorLink": "https://commons.wikimedia.org/w/index.php?curid=26679521",
    "website": "www.matsumoto-castle.jp",
    "coordinates": [36.238889, 137.969167]
  },
  {
    "name": "Château d'Édimbourg",
    "period": "xiie siècle",
    "country": "Royaume-Uni",
    "locality": "Édimbourg",
    "picture": "Chateau_d_Edinburgh.webp",
    "author": "Andrew Shiva",
    "authorLink": "https://commons.wikimedia.org/w/index.php?curid=51291606",
    "website": "https://www.edinburghcastle.scot/",
    "coordinates": [55.948611, -3.200833]
  },
  {
    "name": "Château de Windsor",
    "period": "xie siècle",
    "country": "Royaume-Uni",
    "locality": "Windsor",
    "picture": "Chateau_de_Windsor.webp",
    "author": "Diliff",
    "authorLink": "https://commons.wikimedia.org/w/index.php?curid=1355522",
    "website": "https://www.rct.uk/visit/windsor-castle",
    "coordinates": [51.483889, -0.604722]
  },
  {
    "name": "Château de Versailles",
    "period": "1623",
    "country": "France",
    "locality": "Versailles",
    "picture": "Chateau_de_Versailles.webp",
    "author": "ToucanWings",
    "authorLink": "https://commons.wikimedia.org/w/index.php?curid=28506008",
    "website": "https://www.chateauversailles.fr/",
    "coordinates": [48.805155, 2.120334]
  }
]
